key,amenfeat_1,amenfeat_2,amenfeat_3,amenfeat_4,amenfeat_5,amenfeat_6,amenfeat_7,lon,lat,title
6,(*),(L),(D),(S),,,,-86.8025428,33.5176803,Bill's Club
20,(L),,,,,,,-86.7950963,33.500939,Lodestar Books
49,(YC),(L),(D),(S),(*),,,-86.5975022,34.763722,Atlantis
57,(W),(OC),(L),Cruisy Area,(*),,,-88.0426607,30.6903954,Corral
60,(L),(B),,,,,,-88.0423188,30.6905321,Society Lounge
71,(D),(L),(AH),(*),,,,-86.3095465,32.3765465,Skeeters
91,(YC),(D),(*),(L),,,,-149.8801505,61.2177897,The Village
131,(L),(YC),(D),(PT),,,,-112.147393,33.506892,Farrah's
138,(L),(D),(*),,,,,-112.028937,33.4806218,Incognito Lounge
143,(L),(D),,,,,,-112.0154764,33.4660819,New Moon
180,(D),(P),(V),(L),,,,-110.9252135,32.2363608,Collette's
204,(L),(PT),(*),,,,,-114.6247963,32.7226362,J.P.'s Cameo Lounge
215,(L),(D),,,,,,-94.4003782,35.4090865,Village Landing
231,(*),(L),(D),(S),(PT),(V),,-92.3119574,34.7647864,Fifth Gear
235,(L),,,,,,,-92.3048252,34.7314969,Silver Dollar
259,(M),(D),(L),,,,,-119.0156387,35.3769843,Trade Winds
287,(L),(H),,,,,,-122.775756,39.0430008,Blue Fish Cove Resort
322,(D),(L),(PT),(W),(WE),(*),,-124.163673,40.802071,Driftwood Tavern
342,(L),(D),(*),,,,,-119.8329245,36.7709896,High Energy
346,(L),(D),(PT),,,,,-119.7573238,36.7502101,Palace Saloon
355,(YC),(L),(D),(WE),(*),,,-117.907669,33.7744991,D.O.K West
358,(L),(R),(PT),,,,,-117.9224287,33.7745622,Happy Hour
368,(L),(PT),(D),,,,,-122.0895512,37.6771218,Driftwood Lounge
393,(E),(OC),(L),,,,,-117.7741919,33.5315574,Main Street
417,(*),(L),(D),,,,,-118.1516156,33.7895131,Executive Suite
419,(PT),(L),,,,,,-118.1596465,33.7824589,Hoop's Coop
422,(L),,,,,,,-118.1734759,33.7682248,Le Chat
428,(L),(D),,,,,,-118.1680968,33.7756109,Que Sera Sera
435,(L),(D),,,,,,-118.1688826,33.8656836,Sylvia's
508,(L),(D),(*),,,,,-118.3635911,34.0910919,Peanuts
521,(PT),(L),(*),,,,,-118.3787912,34.0876889,The Palms
580,(L),(D),(PT),(OC),,,,-118.3712497,34.1598544,Big Horn
583,(L),,,,,,,-118.3712497,34.1598544,Club 22
590,(E),(L),(*),,,,,-118.3089661,34.1808392,In Touch East
604,(*),(L),(D),(PT),,,,-119.1770516,34.1975048,Oxwood Inn
610,(L),(*),,,,,,-119.4179324,36.778261,Rumors
625,(L),(D),(V),(*),,,,-118.4681716,34.1494975,Connection
630,(L),,,,,,,-118.4482291,34.0333821,Transfer
645,(D),(L),,,,,,-120.9858206,37.6203997,Brave Bull
651,(D),(L),(WE),(*),,,,-120.9967669,37.6328087,Mustang Club
675,(L),,,,,,,-116.5473,33.8471028,Gloria's Bar
687,(B&B),(L),(*),,,,,-116.5303112,33.8019627,Smoke Tree Villa
707,(L),(D),(*),,,,,-118.0708707,34.1500484,Vermie's
716,(L),(R),,,,,,-117.7361732,34.0583792,Mary's
718,(L),(D),(E),(*),,,,-117.7472522,34.0577566,Robbie's
770,(L),(D),(*),,,,,-121.3959251,38.6316737,Cleo's
778,(L),,,,,,,-121.4763027,38.5754917,Lioness Book Store
791,(D),(PT),(L),,,,,-121.472585,38.5563206,Once in a Blue Moon
826,(PT),(E),(L),,,,,-117.2199109,34.1087469,Stage Door
839,(L),(S),(D),,,,,-117.1000544,32.7800044,Box Office
870,(L),(*),,,,,,-122.4360035,37.7606565,Francine's
922,(L),,,,,,,-122.4303889,37.7668397,Women's Training Center
932,(L),(R),(D),(H),(*),,,-122.410026,37.775454,Clementina's Baybrick Inn
971,(L),(D),(PT),(*),,,,-122.4500469,37.7652923,Maud's
973,(L),(OC),(D),(PT),,,,37.780494,-122.47032,Peg's Place
979,(L),(N),(WE),(AH),,,,-122.4068909,37.7593844,A Little More
980,(*),(L),(D),,,,,-122.4214116,37.7625064,Amelia's
981,(L),(R),(*),,,,,-122.420628,37.7538309,Artemis Society
990,(L),,,,,,,-122.4214209,37.7574411,Modern Times Bookstore
991,(L),,,,,,,-122.4209545,37.7566676,Old Wives' Tales
995,(L),(N),,,,,,-122.4173724,37.7635614,Wildside West
1101,(M),(W),(L),(C),(AH),(WE),(PT),-122.1184584,37.6984727,Bill's
1103,(L),,,,,,,-120.6577598,35.2708044,Journey's Inn
1113,(L),(D),(E),,,,,-122.3230912,37.56598,Sassy's
1116,(R),(D),(*),(L),,,,-122.5223573,37.9676202,B.J.'s
1128,(WE),(*),(W),(SM),(L),,,-119.6977695,34.4170867,Unicorn
1141,(L),(D),(*),,,,,-121.9924746,37.3532549,Savoy
1145,(YC),(L),(D),,,,,-122.0336233,36.9832169,Faces
1169,(*),(YC),(D),(L),(PT),,,-122.712358,38.3735645,Santa Rosa Inn
1199,(L),(D),(R),,,,,-119.2764104,34.2752768,Top Banana's
1213,(D),(R),(L),,,,,-117.9073534,34.0769993,Scene One
1236,(D),(L),(PT),,,,,-104.7927619,38.8595715,Numbers
1244,(L),,,,,,,-104.9745846,39.7336944,Category Six
1248,(L),(OC),,,,,,-104.9803592,39.7402187,Denver Detour
1264,(L),(D),(*),,,,,-105.0668095,39.7398844,Lipps
1277,(D),(PT),(L),,,,,-104.9679002,39.7430265,The Grove
1280,(L),(D),(OC),(*),,,,-105.0027247,39.7642851,Three Sisters
1312,(L),,,,,,,-104.6093046,38.2443008,El Chapel
1318,(L),,,,,,,-73.1901315,41.1817097,Annie's Next Page
1319,(R),(L),,,,,,-73.2191533,41.1571096,Blood Root
1321,(L),(*),(D),(E),,,,-73.1900419,41.1808253,Changes: A Cafe
1329,(L),(M),(D),(R),(*),(YC),,-72.9314499,41.3472084,Promises
1336,(D),(L),(*),,,,,-72.6725934,41.7439217,"Commercial St. West Cafe, Ltd."
1361,(*),(YC),(L),(D),,,,-72.9340374,41.30801,Partners
1372,(M),(D),(L),(R),,,,-72.115811,41.3620272,Hey Judes
1390,(D),(L),,,,,,-75.055181,38.539556,Nomad Village
1442,(D),(L),,,,,,-77.0425391,38.8993921,Hung Jury
1460,(R),(D),(*),(L),,,,-77.0074599,38.8742408,Other Side
1461,(R),(E),(L),,,,,-77.048797,38.909643,'P' Street Station
1462,(L),(PT),(OC),,,,,-76.9952897,38.8819626,Phase One
1488,(D),(L),,,,,,-80.0783565,26.3686841,Fantasies
1493,(D),(L),(*),(S),,,,-80.6061952,28.3757873,Melody
1495,(L),(D),(*),,,,,-81.9403985,26.6282099,Lifestyles
1498,(L),(PT),(D),(*),,,,-82.7945139,27.9658164,Pro Shop
1505,(L),,,,,,,-80.132403,26.0533155,Partners
1508,(*),(YC),(D),(L),(S),,,-81.0079898,29.1818144,Zodiac Lounge
1510,(YC),(D),(*),(L),,,,-82.7892182,28.0117824,Dallape's Lounge
1545,(L),(D),(PT),,,,,-80.1374938,26.1571585,J.J.'s Otherside
1567,(D),(R),(*),(L),,,,-80.2029152,26.1275666,Shangra-La
1614,(OC),(L),(S),(WE),(*),,,-81.7034756,30.3136742,Jo's Little Dude
1639,(*),(YC),(L),(W),(D),(V),,-81.8013198,24.5543023,Copa Key West
1646,(L),(H),,,,,,-81.7904378,24.5597829,Ellie's Nest Guest House
1649,(L),(PT),,,,,,-81.8028573,24.5547084,416 Cafe
1674,(R),(E),(M),(L),,,,-81.805373,24.557323,Pigeon House Patio
1682,(H),(L),,,,,,-81.8037232,24.5587412,Sweet Caroline
1696,(L),(*),,,,,,-80.0575958,26.6149904,Kathy's Place
1701,(P),(D),(W),(L),(WE),(*),,-80.6645228,28.0787604,Saturdays Lounge
1713,(L),,,,,,,-80.2362623,25.7557509,Cherry Grove
1793,(S),(L),(D),,,,,-81.3976493,28.507431,Blockhouse Disco
1797,(L),(S),,,,,,-81.4079151,28.6040887,Faces
1807,(L),(M),(D),(S),(R),,,-81.3515575,28.5390305,Southern Nights
1821,(BYOB),(M),(L),(AH),(*),,,-87.21323,30.410485,Nite Owl
1824,(PT),(L),,,,,,-87.2738579,30.404382,Red Carpet
1835,(*),(L),(D),(E),(PT),(S),,-82.7004197,27.7480621,Cheshire Cat Lounge
1837,(W),(L),,,,,,-82.6379823,27.7599732,Engine Room
1838,(M),(L),(PT),,,,,-82.6390014,27.8479376,Marilyn's Closet
1887,(S),(D),(L),,,,,-82.4516779,28.0832792,Paradise
1888,(D),(B),(L),,,,,-82.4869759,27.9451655,Rene's
1889,(L),(D),,,,,,-82.5115436,27.9448917,Sahara
1894,(S),(L),,,,,,-82.5061078,27.9517512,Tropical Heatwave
1915,(L),,,,,,,-80.0576367,26.7048964,Mata Hari's
1953,(R),(PT),(*),(WE),(L),,,-84.368002,33.79113,Cove
1987,(L),(D),(R),(*),,,,-84.3552249,33.8115368,Sports Page
1992,(L),(D),(YC),,,,,-84.3503435,33.8191337,The Rose
1994,(R),(WE),(*),(L),,,,-84.394939,33.8088868,Toolulah's
1995,(L),,,,,,,-84.362259,33.765206,Tower Lounge
2025,(YC),(D),(L),(*),,,,-84.2790669,30.4946442,Pegasus
2029,(B),(L),(D),,,,,-81.0893058,32.0788087,Lucas Cafe
2035,(YC),(L),(D),,,,,-83.2594645,30.8585238,Members Only Club
2044,(L),(D),(PT),(*),,,,-157.8534032,21.3004599,Partners
2058,(B&B),(H),(L),(IGTA),,,,-159.406945,22.19457,Paradise Found
2102,(D),(PT),(L),(V),(*),,,-116.2068228,43.6157883,Stop Lite
2117,(M),(YC),(L),(D),(R),,,-117.0050099,46.7308661,P.W. Hoseapples
2120,(YC),(L),(D),(*),,,,-112.4518962,42.8634863,Charley's
2135,(R),(L),(E),,,,,-89.984484,38.518971,Deutsch Mark
2143,(L),(D),(*),,,,,-87.5254579,41.6169744,Kelly's Our Way II
2145,(L),(*),,,,,,-87.8963578,41.7894479,Patch
2146,(L),(D),,,,,,-87.5277871,41.6136548,Pour House
2149,(*),(L),(D),,,,,-89.2144906,37.7272867,Main Street East
2191,(L),,,,,,,-87.6515203,41.9396851,Act III
2202,(V),(L),(*),,,,,-87.6442871,41.9426667,Closet
2208,(R),(L),(D),,,,,-87.6706624,41.9249445,Factory Pub
2212,(L),(V),,,,,,-87.653643,41.9473849,His 'n' Hers
2239,(L),(PT),(*),,,,,-87.6490126,41.9498948,Augie's & C.K.'s
2246,(L),(E),,,,,,-87.6486768,41.9493155,Dolores & Eddie's
2248,(L),(D),,,,,,-87.7209462,41.9243398,Foxy Ladies Studio
2251,(L),(D),(*),,,,,-87.6710109,41.9984135,J.J.'s
2254,(L),,,,,,,-87.7053631,41.9541486,Lost & Found
2269,(L),,,,,,,-87.604983,41.7554641,Amen Corner
2271,(L),,,,,,,-87.8005157,41.7770024,Innbetween
2273,(L),(YC),(B),,,,,-87.6047244,41.7474122,Willie's Lounge
2293,(OC),(WE),(*),(L),,,,-90.1549606,38.628263,Helen Schrader's
2308,(L),(D),,,,,,-88.1223243,41.5526721,Club Illusions
2309,(L),(D),(*),,,,,-88.077652,41.5248817,Maneuvers
2312,(*),(L),(D),(V),,,,-87.951417,42.5437968,Club 94
2327,(YC),(L),(*),(D),(S),(PT),,-89.5976547,40.6870072,Club Peorian
2329,(D),(L),(PT),,,,,-89.6034941,40.6998488,Quench Room
2344,(L),(OC),(*),,,,,-89.0871622,42.2672727,Office
2346,(SM),(OC),(RT),(L),(PT),(*),,-90.5715652,41.5094235,Augie's
2348,(OC),(L),(PE),(*),,,,-90.5715816,41.5092254,Madison Square
2352,(YC),(V),(L),(M),(D),(PT),,-89.6323294,39.8430675,Bobby's
2355,(D),(*),(L),,,,,-89.6501866,39.802087,Smokey's Den
2365,(M),(L),(PT),,,,,-90.0977394,38.8607364,Rainbow Inn
2370,(R),(YC),(L),(D),(*),,,-86.5346033,39.1653882,Bullwinkle's
2386,(D),(WE),(*),(YC),(L),,,-87.4989449,37.9910352,Other Side II
2388,(L),(D),(WE),(*),,,,-87.5969411,37.9854982,Swinging Door
2400,(*),(S),(D),(L),,,,-85.143084,41.080003,Old Forge
2420,(R),(*),(PE),(L),,,,-86.156191,39.7799139,Jimmy's Bar
2426,(L),(D),(PT),,,,,-86.16109,39.7858149,Shirley's One Way
2428,(L),(D),(R),(*),,,,-86.1560592,39.7837148,Ten
2472,(L),(D),,,,,,-84.8898975,39.8288697,Coachman Lounge
2477,(L),(D),(S),(*),,,,-86.2773799,41.65755,Sea Horse
2505,(D),(L),(*),,,,,-91.6559147,41.9631947,Warehouse Saloon
2541,(*),(YC),(D),(PT),(L),(M),,-91.5377831,41.6537385,Six Twenty Club
2547,(M),(L),(S),(PT),,,,-96.3950255,42.4943719,Rowdie's
2550,(*),(L),(PT),(D),,,,-92.3303531,42.4992977,Old Dutch Mill
2560,(D),(L),(*),,,,,-94.6160735,39.0443202,Birds of a Feather
2565,(L),,,,,,,-95.236151,38.96926,Spinsters Books
2580,(PT),(L),(D),,,,,-95.6750948,39.046595,Bare Essentials
2582,(P),(PT),(L),(YC),(*),(D),,-95.6732264,39.0508795,Lambda
2592,(PT),(YC),(L),,,,,-97.3198965,37.6493964,Jack's Lounge
2621,(WE),(L),,,,,,-84.499374,38.0479858,Bungalow
2641,(D),(E),(*),(S),(L),,,-85.751793,38.256497,Downtowner
2674,(D),(*),(R),(OC),(L),,,-91.187775,30.4333111,Cock & Bull
2677,(YC),(L),(B),(D),(S),(PT),,-91.1804144,30.4271641,Neimans
2679,(YC),(L),(D),,,,,-91.1811701,30.4275193,Xanthu's
2686,(D),(L),,,,,,-92.0327211,30.2372253,C'Est La Guerre
2688,(L),,,,,,,-92.0186554,30.2230572,Flamingo
2696,(L),(YC),(D),(S),(*),,,-92.0310247,32.5316261,Corky's Lounge
2716,(L),(E),(*),,,,,-90.0707792,29.9574649,Changes
2718,(*),(L),,,,,,-90.0571066,29.9673788,Charlene's
2757,(*),(L),,,,,,-90.0561216,29.964127,Other Side
2804,(R),(YC),(D),(L),(*),,,-69.7735956,44.3191249,Papa Joe's
2830,(L),,,,,,,-70.2624351,43.6529547,Entrenous
2832,(*),(YC),(D),(L),,,,-70.2574098,43.6562263,Underground
2848,(L),(D),,,,,,-76.5621046,39.2914485,Butterfly
2850,(L),(D),(PT),,,,,-76.6012738,39.2878786,Club Mitchell
2851,(L),(D),,,,,,-76.612189,39.290385,Crows Nest
2856,(L),,,,,,,-76.5861851,39.2894181,Fran's
2869,(WE),(AH),(B),(L),,,,-76.6215737,39.2962728,Last Stop
2875,(*),(L),(PT),(S),(D),,,-76.5625701,39.2862383,New Masquerade
2876,(L),,,,,,,-76.5600565,39.291875,New Port in a Storm
2878,(L),(B),(D),,,,,-76.5841183,39.283047,Numbers
2880,(L),,,,,,,-76.612189,39.290385,Pegasus
2888,(B),(L),,,,,,-76.6244444,39.2917824,Tikki's
2897,(L),(R),(*),,,,,-77.615977,39.553701,Deer Park Lodge
2963,(D),(L),(*),,,,,-71.0527741,42.3570555,Somewhere Else
2986,(L),(*),,,,,,-71.1020289,42.3639709,Marquis
3002,(L),(C),(AH),,,,,-70.2709642,41.6673218,Duval Street
3011,(L),(D),,,,,,-70.9417232,42.4608069,Fran's Place
3022,(L),(D),,,,,,-70.9240734,41.6541678,La Place
3026,(M),(L),(D),,,,,-72.6274057,42.3189066,Pearl Street Cafe
3036,(H),(L),,,,,,-70.18412,42.053013,Angel's Landing Guest House
3037,(H),(L),,,,,,-70.1841156,42.0559718,Aspasia House
3039,(H),(L),,,,,,-70.1941618,42.0424058,Atwood Inn
3040,(*),(YC),(D),(L),(M),,,-70.187383,42.050051,Back Room
3056,(H),(L),,,,,,-70.1919759,42.0492699,Check'er lnn
3067,(M),(L),,,,,,-70.1936502,42.0436909,Cutty Sark Guest House
3079,(H),(L),(*),,,,,-70.1883481,42.0515591,Gabriel Apts.
3081,(H),(L),,,,,,-70.1840226,42.0549879,Green House Inn
3097,(M),(L),(H),(R),,,,-70.1895573,42.0485017,PaintedLadyInn
3099,(*),(D),(R),(PT),(L),(M),,-70.1890321,42.0486937,Pied Piper
3110,(L),(H),,,,,,-70.1791506,42.0565419,Ravenwood Guest House
3142,(M),(L),,,,,,-70.1898829,42.0480392,White Wind Inn
3154,(L),(S),(WE),,,,,-72.5913848,42.1053983,Missy's
3167,(M),(YC),(L),,,,,-73.204875,42.71044,Purple Pub
3169,(M),(YC),(R),(L),,,,-71.5879508,42.2345219,Erasmus Cafe
3187,(R),(L),(YC),,,,,-85.1798261,42.3176692,Eastown Capri Theatre Downtown Mall Input...1
3212,(D),(V),(L),(YC),(*),,,-83.3292887,42.2981396,Cruise Club
3223,(R),(D),(L),,,,,-83.2112586,42.3436283,Gigi's
3231,(L),(D),,,,,,-83.0755854,42.4359017,Laura's
3242,(L),(D),(*),,,,,-83.0761027,42.4470455,Railroad Crossing
3258,(L),(D),,,,,,-83.321484,42.4415093,Underground
3281,(L),,,,,,,-85.6676362,42.9652695,Radclyffe Hall
3297,(*),(D),(W),(YC),(OC),(L),,-84.545324,42.7343058,Joe Covello's
3312,(M),(L),,,,,,-87.3945939,46.5501048,Third Base Tap
3315,(L),,,,,,,-82.8816665,42.5921527,D's Lounge
3326,(*),(D),(L),,,,,-83.2837677,42.6493361,Poppers Pontiac
3372,(L),,,,,,,-93.2965512,44.9552333,Amazon Book Store
3392,(N),(D),(L),(PT),,,,-93.2788049,44.9675268,Nineteen Bar
3429,(L),(D),,,,,,-93.1500633,44.9560131,Ladies Night
3433,(L),(D),(*),,,,,-93.1600555,44.9560147,Town House
3466,(L),,,,,,,-90.1897282,32.3006661,Jill's Saloon
3471,(*),(L),(D),,,,,-88.6991648,32.3629189,Talk of the Town
3504,(P),(L),,,,,,-94.5876021,39.0363075,Billie Jean's
3525,(M),(L),,,,,,-94.5899326,39.0627401,New Earth Books
3550,(*),(YC),(L),(PT),,,,-94.851499,39.7660546,Avis' Lounge
3560,(R),(D),(L),,,,,-90.2672126,38.6190015,DJ's
3567,(L),,,,,,,-90.2526929,38.5522257,Jan's Stowaway
3568,(L),(PT),,,,,,-90.1994042,38.6270025,Kitty Kat Klub
3570,(L),,,,,,,-90.2612115,38.6483623,Left Bank Books
3580,(L),(D),(V),(S),,,,-90.2508822,38.6264828,Stars
3583,(L),,,,,,,-90.3018231,38.6553103,Woman's Eye Book Store
3629,(H),(L),,,,,,-113.994031,46.872128,North Crow Vacation Ranch
3636,(L),,,,,,,-96.6949956,40.8122236,Cherchez La Femme
3665,(P),(L),(*),,,,,-71.4578053,42.9891329,Club Merri-Mac
3672,(P),(L),,,,,,-70.7575212,43.0761164,"Isis, Ltd."
3681,(L),(R),,,,,,-74.0117654,40.2161007,Bond Street Bar
3682,(L),(D),,,,,,-74.0062758,40.2175794,Charms
3685,(M),(L),,,,,,-74.001021,40.220874,Key West Motel
3687,(L),(E),(WE),(*),,,,-74.001021,40.220874,Owl & Pussycat
3693,(R),(*),(L),,,,,-74.4310387,39.3602778,Brass Rail Bar
3700,(D),(L),,,,,,-74.3713072,39.4027332,Studio VI
3705,(D),(L),(WE),(*),,,,-74.1468194,40.8061095,Buddy's
3733,(M),(L),,,,,,-74.2097014,40.082129,Adult Books
3735,(L),(D),(R),(PT),,,,-74.59377,40.877877,Maddie's Mine Hill Tavern
3739,(*),(YC),(L),(D),(OC),,,-74.4415011,40.4954104,Den
3747,(D),(L),(*),,,,,-74.2309322,40.7708803,Rah-Rah'sPub
3763,(E),(R),(YC),(L),(WE),(*),,-74.273952,40.644501,Casablanca
3770,(L),(*),,,,,,-74.7535985,40.2082503,Rainbow
3776,(L),(D),(WE),,,,,-74.0338536,40.7663755,Night Lite
3780,(PT),(D),(YC),(L),,,,-74.0061992,40.7885704,Friendly's Tavern
3791,(L),(P),,,,,,-106.5859615,35.1068713,Corky's
3792,(PT),(L),(P),,,,,-106.7003143,35.0825567,Cricket's
3841,(M),(L),(PT),(N),,,,-73.2597551,40.7238024,Ruthie's Place
3846,(*),(YC),(L),(D),(V),,,-75.9118006,42.1018782,Lenny's
3849,(L),,,,,,,-75.9102579,42.0997153,Squiggy's
3863,(L),(D),(*),,,,,-78.8988311,42.9175879,M.C. Compton's
3889,(D),(S),(*),(L),,,,-73.671694,40.7364176,Thunders
3903,(D),(S),(L),(M),(WE),(*),,-73.089293,40.659053,Ice Palace
3908,(D),(S),(L),(WE),(*),,,-73.6974651,40.7357093,Silver Lining
3921,(D),(L),,,,,,-79.24104,42.0984865,15 E. 5th
3922,(L),(YC),(WE),(D),(*),,,-79.2302812,42.0976073,Nile Spot
3933,(L),,,,,,,-73.1181919,40.8216997,Kiss
3935,(L),,,,,,,-73.3797734,40.7002463,Forever Green
3940,(L),(S),(PT),,,,,-73.7807713,40.9092703,Rumors
3961,(L),,,,,,,-74.0064631,40.731133,Cubby Hole
3975,(*),(L),,,,,,-74.0028134,40.7331447,Grove Club
3985,(L),,,,,,,-74.0041563,40.730584,Kelly's Village West
4018,(L),,,,,,,-74.0017116,40.7345329,Three Lives Book Store
4058,(L),,,,,,,-73.9914967,40.7535628,Gables
4113,(L),,,,,,,-73.9725526,40.7917586,Womanbooks
4123,(D),(L),,,,,,-73.9038865,40.852267,Strawberries
4124,(M),(B),(L),Cruisy Area,,,,-73.773586,41.065135,Bronx River Park
4132,(D),(L),(S),(*),,,,-73.9853215,40.6174265,Sweets
4169,(*),(L),(D),(R),,,,-77.6258384,43.1567326,Allen St. Club
4187,(D),(L),,,,,,-77.6004606,43.150311,Rosie's
4188,(L),,,,,,,-77.590847,43.1447815,Silkwood Books
4192,(L),,,,,,,-77.6408985,43.1546705,Two Twelve Club
4204,(YC),(D),(L),,,,,-73.9567776,42.7800002,Falcon
4208,(D),(L),,,,,,-73.2379712,40.8474906,Heavens
4215,(L),(D),(*),,,,,-76.1431235,43.0531304,Laurel Tree
4233,(L),,,,,,,-75.2555167,43.1109591,Reflections
4240,(*),(D),(PT),(L),,,,-73.6441554,40.7008603,T .C .& Company
4242,(M),(R),(E),(L),,,,-74.539882,41.336761,Folderol
4244,(D),(R),(L),(*),,,,-73.7626329,41.0242108,Addie's Secret Garden
4257,(L),(M),,,,,,-82.5550496,35.5963855,Malaprop's Bookstore
4259,(N),(R),(D),(L),,,,-82.5577653,35.5933932,Scandals
4278,(S),(YC),(L),(PT),(*),,,-80.8584039,35.2106696,Olean's Lounge
4307,(P),(E),(W),(L),(S),(*),,-79.7938188,36.0769486,The Palms
4333,(E),(L),,,,,,-78.645614,35.8032021,Glenwood Park
4346,(*),(L),(YC),(D),,,,-77.9482978,34.2350704,David's Lounge
4350,(L),(W),(PT),,,,,-80.3499505,36.0848394,Mirrors
4361,(L),(D),(PT),(*),,,,-96.7647522,46.8760346,My Place
4379,(M),(L),,,,,,-81.5426721,41.0959517,Gentle Lady
4384,(L),(D),(S),(PT),(*),,,-81.4913364,41.0174893,Quest
4396,(*),(P),(L),(PT),,,,-81.3654355,40.795848,Dars Bar
4405,(M),(L),(OC),(PT),,,,-82.9926779,39.3457556,Junction Pub
4423,(L),(E),(PT),(N),,,,-84.5126367,39.1262695,Squeeze In
4425,(*),(L),(YC),(D),,,,-84.509828,39.1292676,2601 Club
4458,(L),,,,,,,-81.6943605,41.49932,Paradise Inn
4477,(L),,,,,,,-82.9966032,39.961171,Fan the Flames
4482,(L),(R),,,,,,-83.0003467,39.9456863,Mel's Place
4485,(YC),(L),(D),(S),,,,-83.0002345,40.0085426,Summit Station
4505,(L),(D),(PT),,,,,-84.1925415,39.7566944,Changes
4509,(N),(L),,,,,,-84.2066807,39.7634685,Martinique
4520,(L),,,,,,,-82.3488498,39.8568283,Springhill Farm
4530,(D),(L),,,,,,-82.5550722,40.759553,Johnny's
4544,(PT),(D),(L),(V),(E),(S),(*),-83.8225532,39.9256133,Gaslight Inn
4552,(D),(L),(S),(*),,,,-80.6144349,40.3611138,David's Lounge
4575,(PT),(L),(WE),(*),,,,-80.816477,41.2356773,The Office
4606,(*),(D),(YC),(L),(M),,,-97.5481078,35.5116263,Angles
4612,(P),(L),(D),(WE),(*),,,-97.5636993,35.508097,D.J.'s
4616,(L),,,,,,,-97.5473116,35.4805648,K.A.'s Club
4622,(L),(V),(D),,,,,-97.548539,35.5111829,Razzy's
4652,(L),(PT),,,,,,-95.8862865,36.1449006,Rustic Club
4677,(W),(YC),(L),(PT),(*),(D),(WE),-123.0845644,44.0456864,Cassady'sTavern
4679,(M),(L),(D),(WE),(*),,,-123.0895316,44.0492797,Gizmo's
4681,(L),,,,,,,-123.107634,44.0540515,Mother Kali's Book Store
4682,(L),(OC),(D),(PT),,,,-123.0933132,44.0489697,Riviera Room
4700,(L),(D),(*),,,,,-122.6562575,45.5174509,Club 927
4703,(M),(R),(S),(WE),(L),,,-122.7873187,45.5986823,Darcelle XV Tavern
4707,(*),(D),(YC),(L),,,,-122.6772242,45.5239836,Embers
4719,(M),(L),(R),,,,,-122.6523974,45.5226528,Old Wives Tale
4723,(L),(D),(*),,,,,-122.6876963,45.5305504,Primary Domain
4746,(*),(W),(L),(D),(PT),,,-123.0179427,44.9343958,Bumper's
4756,(L),,,,,,,-75.4834756,40.6036336,Candida
4781,(L),(WE),*,,,,,-75.227828,40.688126,13th St. Pub
4789,(*),(YC),(L),(PT),,,,-80.1595621,42.0953574,R&K's Club 13
4800,(L),(D),,,,,,-76.8991917,40.3269559,D-Gem Lounge
4830,(L),(D),(PT),,,,,-76.3115557,40.0447257,Sundown Lounge
4831,(*),(YC),(L),(D),(R),,,-76.3089318,40.0393767,Tally Ho
4848,(YC),(L),(R),(H),(S),(D),,-74.9503317,40.3630266,Chadwyck Inn
4873,(P),(M),(L),(D),,,,-75.1357938,39.9996813,Black Banana/CCC
4876,(S),(L),,,,,,-75.1373833,40.0059256,Bravo's Plaza
4879,(P),(L),(M),(B),(AH),,,-75.160238,39.9491045,Catacombs
4894,(*),(L),,,,,,-75.1612188,39.9451712,Giovanni's Room
4898,(P),(L),(E),,,,,-75.1599876,39.9483481,Hideout
4919,(L),(WE),(D),(*),,,,-75.1454399,39.9505721,Sneakers
4927,(L),(AH),(*),,,,,-75.1616977,39.9483551,Two-Four Club
4964,(P),(*),(R),(L),,,,-79.9655258,40.459283,Norreh Social Club
4969,(L),(N),(D),,,,,-79.9248403,40.4581413,Tender Trap
4992,(M),(L),(B),,,,,-75.9273331,40.3390335,Glass Door
4993,(L),,,,,,,-75.9192023,40.3518943,Nostalgia
5042,(*),(L),,,,,,-66.050955,18.422578,Boccahio
5045,(L),,,,,,,-66.039571,18.450768,Doncella 109
5051,(L),,,,,,,-66.0558816,18.4544127,Manfredo's Guest House
5071,(L),(D),(SM),,,,,-71.3856192,41.8892402,Marti's
5080,(L),(D),(WE),(S),,,,-71.4343891,41.8293588,Cabana
5102,(WE),(*),(L),,,,,-71.519471,41.873802,The Loft
5128,(L),(D),,,,,,-81.033625,33.9896649,Traxx
5129,(L),,,,,,,-81.0016349,34.0384045,2 of Hearts
5171,(L),(D),(BYOB),(*),,,,-96.726466,43.5435941,Club 332
5179,(D),(YC),(L),(*),,,,-85.2871776,35.0395236,Go Go Club
5192,(D),(*),(WE),(L),,,,-82.355409,36.311316,Connection
5203,(L),,,,,,,-83.935324,35.9561154,Point After
5216,(L),,,,,,,-89.991089,35.1365142,Book Cottage
5218,(L),CW,(S),,,,,-89.9464166,35.1072998,Fancys
5231,(L),(D),(*),(BYOB),,,,-90.0067229,35.1404901,Pendulum Dance Hall
5253,(*),(YC),(D),(L),,,,-86.8329972,35.9733963,Warehouse 28
5269,CW,(L),(D),(E),,,,-101.8312969,35.2219971,L.B.J.
5270,(L),(D),(PT),(S),(WE),(*),,-101.8411098,35.1981341,Maggie's
5290,(L),,,,,,,-97.7364045,30.2696149,Chances
5308,(D),(*),(L),(YC),,,,-97.742313,30.275931,Uncle Charlie's
5314,(*),(YC),(D),(S),(L),,,-94.1202179,30.0837954,Copa
5331,(*),(L),,,,,,-97.4027496,27.768154,Other Door
5338,(L),,,,,,,-96.8195288,32.8242021,Buddie's
5361,(L),(C&W),(D),,,,,-96.8306206,32.8263339,High Country
5364,(OC),(L),(D),(PT),,,,-96.8184777,32.8215655,Jug's
5365,(*),(V),(F&S),(P),(L),,,-96.8552862,32.8220798,La Cage
5372,(L),,,,,,,-96.8390816,32.8287006,North Forty Saloon
5410,(P),(L),(PT),,,,,-97.1403861,33.2062917,Cedar Rail
5412,(P),(L),(PT),,,,,-97.117337,33.2333264,T.J.'s
5419,(L),(*),(PT),,,,,-106.4819317,31.7570601,Diamond Lil's
5426,(L),,,,,,,-106.4669093,31.7710669,Our Memories
5428,(*),(PT),(L),(V),,,,-106.4815635,31.7592294,San Antonio Mining Co.
5429,(L),,,,,,,-106.4850217,31.7618778,Scorpion Lounge
5445,(R),(AH),(L),,,,,-97.328346,32.7302654,D.J.'s
5446,(L),(D),(*),,,,,-97.3443556,32.726044,Partners
5475,(*),(L),(E),,,,,-95.3883309,29.7432632,Bacchus
5511,(L),(PT),,,,,,-95.3904189,29.7343579,Just Marion & Lynn's
5512,(L),(PT),(D),(*),,,,-95.4589015,29.732297,Kindred Spirits
5578,(L),,,,,,,-101.855166,33.577863,Just Magic
5587,(D),(YC),(L),,,,,-98.2286678,26.2188884,Bumpers
5589,(L),(D),,,,,,-98.2527399,26.2089739,Other Face
5596,(YC),(L),(*),(D),,,,-102.4005506,31.9304126,Nite Spot
5600,(*),(L),,,,,,-100.464464,31.4528095,Phase III
5608,(L),(PT),,,,,,-98.5664478,29.5221887,Country Club
5617,(L),(D),,,,,,-98.5696618,29.5242934,Jezebel
5619,(L),,,,,,,-98.4956039,29.367277,Las Gueras
5624,(L),CW,,,,,,-98.5084587,29.4906924,Our Place
5630,(L),,,,,,,-98.5113642,29.4495567,Reminisce
5632,(L),,,,,,,-98.4957396,29.3225132,Sisters
5640,(B&B),(*),(H),(PT),(L),(BA),(IGTA),-97.1669678,26.1102628,Lyle's Deck
5657,(WE),(L),,,,,,-97.003598,28.805267,77 South Lounge
5659,(L),,,,,,,-97.1662099,31.5706366,Hush
5663,(L),,,,,,,-98.4897532,33.9101165,Lifestyle
5664,(L),(D),(*),,,,,-98.4947844,33.9114329,Peggy's Place
5672,(*),(D),(L),(S),,,,-111.970268,41.2209042,Blue Horizon
5701,(L),(D),(S),(PT),(*),,,-111.9397252,40.7474987,Puss 'n Boots
5716,(P),(YC),(L),(*),,,,-72.5584237,42.8519106,Colors
5721,(D),(R),(L),(*),,,,-73.2135039,44.4802321,Pearl's
5726,(L),,,,,,,-72.307529,44.520629,Green Hope Farms
5768,(*),(YC),(L),(D),(R),(PT),,-76.29858,36.885804,Cue
5771,(L),(D),,,,,,-76.239013,36.8903051,Hershee Bar
5772,(P),(AH),(L),(D),(*),,,-76.2873537,36.8606543,Late Show
5796,(YC),(L),(PT),(S),(D),(*),,-77.425091,37.5322231,Scandal's
5804,(L),(M),,,,,,-79.9481168,37.2721279,Back Street Cafe
5807,(*),(L),(YC),(P),(D),(AH),,-79.9527866,37.2729801,The Park
5836,(*),(YC),(L),(D),(PT),,,-122.4764828,48.7491201,Rumors
5854,(M),(R),(L),,,,,-122.9024277,47.0449429,Ben Moore's Cocktail Lounge
5866,(N),(L),,,,,,-122.3335149,47.6612235,Bus Stop
5877,(D),(L),(WE),(*),,,,-122.3293839,47.6187636,Eastlake East
5899,(L),,,,,,,-122.3595426,47.6227925,QB
5918,(L),(R),,,,,,-122.3183889,47.6139276,Wild Rose Tavern
5929,(L),(H),,,,,,-124.0546,46.334544,Enchanted Blue Wave
5954,(*),(YC),(L),(R),(D),,,-122.4398519,47.2559427,733 Club
5955,(S),(D),(L),,,,,-122.4207836,47.2295664,The Bar
5965,(L),(E),,,,,,-118.3378604,46.0679715,Red Apple Lounge
5980,(L),(D),(S),(PT),(WE),(*),,-81.2242839,37.2694427,Shamrock
5986,(*),(YC),(D),(P),(L),,,-81.6256421,38.3500112,Grand Palace
5987,(L),(D),(PT),(*),,,,-81.6224911,38.3498688,Long Branch
5995,(L),,,,,,,-82.445154,38.41925,South Seas
6007,(D),(L),(PT),(*),,,,-88.4226505,44.2728322,1101 West
6014,(L),,,,,,,-88.4471791,43.7789992,Myrna's
6018,(L),(D),,,,,,-87.9210482,44.5313196,Loft
6027,(D),(L),(*),,,,,-87.951417,42.5437968,Club 94
6035,(L),(D),(*),,,,,-91.2478013,43.8460448,Tattoo's
6041,(L),(WE),(*),,,,,-89.3767151,43.0760831,Back East
6052,(R),(M),(L),,,,,-89.3642633,43.0836432,Willy Bear
6061,(L),(D),(R),,,,,-87.960924,43.048481,Beer Garden
6069,(L),(D),(PT),,,,,-87.9100927,43.02307,DK's
6071,(L),(R),(D),(*),,,,-87.9096329,43.020368,Fannie's
6074,(L),,,,,,,-87.9341233,43.0242433,Gay Street Station
6078,(V),(D),(L),(*),,,,-87.9123152,43.0228069,Hot Legs
6083,(PT),(L),,,,,,-87.9678494,43.0835518,Loose Ends
6094,(L),,,,,,,-87.9477372,43.0377251,27th St. Danceteria
6114,(L),(D),,,,,,-87.7828523,42.7261309,Jo Dee's
6119,(D),(W),(L),(PT),(*),,,-92.1044887,46.7354629,Main Club
6120,(D),(L),(B),,,,,-92.1041987,46.7335755,Molly & Oscar's
6121,(L),(PT),,,,,,-92.1036781,46.7282391,Trio
